[
  {"id":"1","division_id":"1","name":"Comilla","lat":23.4682747,"lng":91.1788135},
  {"id":"2","division_id":"1","name":"Feni","lat":23.023231,"lng":91.3840844},
  {"id":"3","division_id":"1","name":"Brahmanbaria","lat":23.9570904,"lng":91.1119286},
  {"id":"4","division_id":"1","name":"Rangamati","lat":22.65561018,"lng":92.17541121},
  {"id":"5","division_id":"1","name":"Noakhali","lat":22.869563,"lng":91.099398},
  {"id":"6","division_id":"1","name":"Chandpur","lat":23.2332585,"lng":90.6712912},
  {"id":"7","division_id":"1","name":"Lakshmipur","lat":22.942477,"lng":90.841184},
  {"id":"8","division_id":"1","name":"Chattogram","lat":22.335109,"lng":91.834073},
  {"id":"9","division_id":"1","name":"Coxsbazar","lat":21.44315751,"lng":91.97381741},
  {"id":"10","division_id":"1","name":"Khagrachhari","lat":23.119285,"lng":91.984663},
  {"id":"11","division_id":"1","name":"Bandarban","lat":22.1953275,"lng":92.2183773},
  {"id":"12","division_id":"2","name":"Sirajganj","lat":24.4533978,"lng":89.7006815},
  {"id":"13","division_id":"2","name":"Pabna","lat":23.998524,"lng":89.233645},
  {"id":"14","division_id":"2","name":"Bogura","lat":24.8465228,"lng":89.377755},
  {"id":"15","division_id":"2","name":"Rajshahi","lat":24.37230298,"lng":88.56307623},
  {"id":"16","division_id":"2","name":"Natore","lat":24.420556,"lng":89.000282},
  {"id":"17","division_id":"2","name":"Joypurhat","lat":25.09636876,"lng":89.04004280},
  {"id":"18","division_id":"2","name":"Chapainawabganj","lat":24.5965034,"lng":88.2775122},
  {"id":"19","division_id":"2","name":"Naogaon","lat":24.83256191,"lng":88.92485205},
  {"id":"20","division_id":"3","name":"Jashore","lat":23.16643,"lng":89.2081126},
  {"id":"21","division_id":"3","name":"Satkhira","lat":22.7180905,"lng":89.0687033},
  {"id":"22","division_id":"3","name":"Meherpur","lat":23.762213,"lng":88.631821},
  {"id":"23","division_id":"3","name":"Narail","lat":23.172534,"lng":89.512672},
  {"id":"24","division_id":"3","name":"Chuadanga","lat":23.6401961,"lng":88.841841},
  {"id":"25","division_id":"3","name":"Kushtia","lat":23.901258,"lng":89.120482},
  {"id":"26","division_id":"3","name":"Magura","lat":23.487337,"lng":89.419956},
  {"id":"27","division_id":"3","name":"Khulna","lat":22.815774,"lng":89.568679},
  {"id":"28","division_id":"3","name":"Bagerhat","lat":22.651568,"lng":89.785938},
  {"id":"29","division_id":"3","name":"Jhenaidah","lat":23.5448176,"lng":89.1539213},
  {"id":"30","division_id":"4","name":"Jhalakathi","lat":22.6422689,"lng":90.2003932},
  {"id":"31","division_id":"4","name":"Patuakhali","lat":22.3596316,"lng":90.3298712},
  {"id":"32","division_id":"4","name":"Pirojpur","lat":22.5781398,"lng":89.9983909},
  {"id":"33","division_id":"4","name":"Barisal","lat":22.7004179,"lng":90.3731568},
  {"id":"34","division_id":"4","name":"Bhola","lat":22.685923,"lng":90.648179},
  {"id":"35","division_id":"4","name":"Barguna","lat":22.159182,"lng":90.125581},
  {"id":"36","division_id":"5","name":"Sylhet","lat":24.8897956,"lng":91.8697894},
  {"id":"37","division_id":"5","name":"Moulvibazar","lat":24.482934,"lng":91.777417},
  {"id":"38","division_id":"5","name":"Habiganj","lat":24.374945,"lng":91.41553},
  {"id":"39","division_id":"5","name":"Sunamganj","lat":25.0658042,"lng":91.3950115},
  {"id":"40","division_id":"6","name":"Narsingdi","lat":23.932233,"lng":90.71541},
  {"id":"41","division_id":"6","name":"Gazipur","lat":24.0022858,"lng":90.4264283},
  {"id":"42","division_id":"6","name":"Shariatpur","lat":23.2060195,"lng":90.3477725},
  {"id":"43","division_id":"6","name":"Narayanganj","lat":23.63366,"lng":90.496482},
  {"id":"44","division_id":"6","name":"Tangail","lat":24.264145,"lng":89.918029},
  {"id":"45","division_id":"6","name":"Kishoreganj","lat":24.444937,"lng":90.776575},
  {"id":"46","division_id":"6","name":"Manikganj","lat":23.8602262,"lng":90.0018293},
  {"id":"47","division_id":"6","name":"Dhaka","lat":23.7115253,"lng":90.4111451},
  {"id":"48","division_id":"6","name":"Munshiganj","lat":23.5435742,"lng":90.5354327},
  {"id":"49","division_id":"6","name":"Rajbari","lat":23.7574305,"lng":89.6444665},
  {"id":"50","division_id":"6","name":"Madaripur","lat":23.164102,"lng":90.1896805},
  {"id":"51","division_id":"6","name":"Gopalganj","lat":23.0050857,"lng":89.8266059},
  {"id":"52","division_id":"6","name":"Faridpur","lat":23.6070822,"lng":89.8429406},
  {"id":"53","division_id":"7","name":"Panchagarh","lat":26.3411,"lng":88.5541606},
  {"id":"54","division_id":"7","name":"Dinajpur","lat":25.6217061,"lng":88.6354504},
  {"id":"55","division_id":"7","name":"Lalmonirhat","lat":25.9165451,"lng":89.4532409},
  {"id":"56","division_id":"7","name":"Nilphamari","lat":25.931794,"lng":88.856006},
  {"id":"57","division_id":"7","name":"Gaibandha","lat":25.328751,"lng":89.528088},
  {"id":"58","division_id":"7","name":"Thakurgaon","lat":26.0336945,"lng":88.4616834},
  {"id":"59","division_id":"7","name":"Rangpur","lat":25.7558096,"lng":89.244462},
  {"id":"60","division_id":"7","name":"Kurigram","lat":25.805445,"lng":89.636174},
  {"id":"61","division_id":"8","name":"Sherpur","lat":25.0204933,"lng":90.0152966},
  {"id":"62","division_id":"8","name":"Mymensingh","lat":24.7465670,"lng":90.4072093},
  {"id":"63","division_id":"8","name":"Jamalpur","lat":24.937533,"lng":89.937775},
  {"id":"64","division_id":"8","name":"Netrokona","lat":24.870955,"lng":90.727887}
]
